City,State,Latitude,Longitude,Timezone
New York,NY,40.712776,-74.005974,EST
Los Angeles,CA,34.052235,-118.243683,PDT
Chicago,IL,41.878113,-87.629799,CDT
Houston,TX,29.760427,-95.369804,CDT
Phoenix,AZ,33.448376,-112.074036,MST
Philadelphia,PA,39.952583,-75.165222,EST
San Antonio,TX,29.424122,-98.493629,CDT
San Diego,CA,32.715736,-117.161087,PDT
Dallas,TX,32.776664,-96.796988,CDT
San Jose,CA,37.354107,-121.955235,PDT
Austin,TX,30.267153,-97.743061,CDT
Jacksonville,FL,30.332184,-81.655651,EST
Indianapolis,IN,39.768403,-86.158068,CDT
San Francisco,CA,37.774929,-122.419416,PDT
Columbus,OH,39.961178,-82.998795,CDT
Fort Worth,TX,32.755488,-97.330766,CDT
Charlotte,NC,35.227085,-80.843124,EST
Seattle,WA,47.606209,-122.332071,PDT
Denver,CO,39.739235,-104.990250,MDT
El Paso,TX,31.761877,-106.485021,MDT
Washington, DC,38.895110,-77.036366,EST
Boston,MA,42.360081,-71.058884,EST
Nashville,TN,36.162664,-86.781602,CDT
Baltimore,MD,39.290882,-76.610759,EST
Oklahoma City,OK,35.463368,-97.515701,CDT
Louisville,KY,38.252232,-85.749562,EDT
Milwaukee,WI,43.038902,-87.906471,CDT
Portland,OR,45.505106,-122.675026,PDT
Las Vegas,NV,36.169941,-115.139830,PDT
Albuquerque,NM,35.085334,-106.605553,MDT
Tucson,AZ,32.222606,-110.974710,MST
Fresno,CA,36.746840,-119.772591,PDT
Sacramento,CA,38.581573,-121.494400,PDT
Mesa,AZ,33.415184,-111.831472,MST
Kansas City,MO,39.099724,-94.578331,CDT
Long Beach,CA,33.770050,-118.193741,PDT
Raleigh,NC,35.772096,-78.638614,EST
Virginia Beach,VA,36.852928,-75.977985,EST
Atlanta,GA,33.749001,-84.387978,EST
Colorado Springs,CO,38.833882,-104.821363,MDT
Omaha,NE,41.256535,-95.934503,CDT
Raleigh,NC,35.772096,-78.638614,EST
Virginia Beach,VA,36.852928,-75.977985,EST
Oakland,CA,37.804363,-122.271111,PDT
Minneapolis,MN,44.977753,-93.265015,CDT
Tulsa,OK,36.154014,-95.992775,CDT
Wichita,KS,37.686880,-97.336097,CDT
New Orleans,LA,29.951065,-90.071533,CDT
Arlington,TX,32.735687,-97.108066,CDT
Cleveland,OH,41.505493,-81.681290,EDT
Tampa,FL,27.950575,-82.457178,EST
Bakersfield,CA,35.373297,-119.018714,PDT
Aurora,CO,39.729432,-104.831919,MDT
Anaheim,CA,33.836594,-117.914301,PDT
#Honolulu,HI,21.306944,-157.858337,HST
Wichita,KS,37.686880,-97.336097,CDT
Tampa,FL,27.950575,-82.457178,EST
Santa Ana,CA,33.745851,-117.867830,PDT
Corpus Christi,TX,27.800583,-97.396378,CDT
Riverside,CA,33.953349,-117.396156,PDT
St. Louis,MO,38.626515,-90.193180,CDT
Lexington,KY,38.040584,-84.503716,EDT
Pittsburgh,PA,40.441723,-79.990121,EDT
Stockton,CA,37.957702,-121.290780,PDT
Anchorage,AK,61.218056,-149.900278,AKST
Cincinnati,OH,39.103119,-84.512016,EDT
St. Paul,MN,44.953705,-93.089958,CDT
Toledo,OH,41.652805,-83.537867,EDT
Greensboro,NC,36.072640,-79.791975,EST
Newark,NJ,40.735657,-74.172367,EST
Plano,TX,33.019843,-96.698886,CDT
Henderson,NV,36.039525,-114.981721,PDT
Lincoln,NE,40.813616,-96.702596,CDT
Buffalo,NY,42.886448,-78.878372,EST
Jersey City,NJ,40.717775,-74.043390,EST
Chula Vista,CA,32.640053,-117.084196,PDT
Fort Wayne,IN,41.079273,-85.139351,EDT
Orlando,FL,28.538336,-81.379234,EST
St. Petersburg,FL,27.767601,-82.640860,EST
Chandler,AZ,33.306160,-111.841250,MST
Laredo,TX,27.530567,-99.480324,CDT
Norfolk,VA,36.850769,-76.285873,EST
Durham,NC,35.994033,-78.898619,EST
Madison,WI,43.073052,-89.401230,CDT
Lubbock,TX,33.577863,-101.855166,CDT
Irvine,CA,33.684566,-117.826508,PDT
Winston-Salem,NC,36.099861,-80.244217,EST
Glendale,CA,34.142507,-118.255075,PDT
Reno,NV,39.529633,-119.813803,PDT
Hialeah,FL,25.857596,-80.278105,EST
Garland,TX,32.912624,-96.638883,CDT
Chesapeake,VA,36.768208,-76.287492,EST
Irving,TX,32.814018,-96.948894,CDT
North Las Vegas,NV,36.198859,-115.117501,PDT
Scottsdale,AZ,33.494170,-111.926051,MST
Baton Rouge,LA,30.451468,-91.187147,CDT
Fremont,CA,37.548271,-121.988571,PDT
Richmond,VA,37.540725,-77.436048,EST
Boise,ID,43.615019,-116.202314,MDT
San Bernardino,CA,34.108345,-117.289765,PDT
Birmingham,AL,33.520661,-86.802490,CDT
Spokane,WA,47.659722,-117.425000,PDT
Modesto,CA,37.639097,-120.996878,PDT
Des Moines,IA,41.591087,-93.603729,CDT
Oxnard,CA,34.197504,-119.177051,PDT
Tacoma,WA,47.252877,-122.444291,PDT
Fontana,CA,34.092233,-117.435048,PDT
Fayetteville,NC,35.052665,-78.878358,EST
Moreno Valley,CA,33.942467,-117.229672,PDT
Glendale,AZ,33.538652,-112.185987,MST
Yonkers,NY,40.931210,-73.898746,EST
Huntington Beach,CA,33.660297,-117.999226,PDT
Aurora,IL,41.760585,-88.320072,CDT
Salt Lake City,UT,40.760779,-111.891047,MDT
Akron,OH,41.081444,-81.519005,EDT
Little Rock,AR,34.746483,-92.289597,CDT
Augusta,GA,33.473497,-82.010514,EST
Amarillo,TX,35.222001,-101.831298,CDT
Mobile,AL,30.695365,-88.039891,CDT
Grand Rapids,MI,42.963360,-85.668086,EDT
Salt Lake City,UT,40.760779,-111.891047,MDT
Tallahassee,FL,30.438255,-84.280732,EST
Tempe,AZ,33.425506,-111.940005,MST
# Add more entries with city, state, latitude, longitude, and other parameters as needed